[
  {
    "name": "SMA NEGERI 20 SURABAYA",
    "latitude": -7.307078,
    "longitude": 112.789178
  },
  {
    "name": "SMA 17 AGUSTUS 1945 SURABAYA",
    "latitude": -7.298123,
    "longitude": 112.768733
  },
  {
    "name": "SMA DR. SOETOMO SURABAYA",
    "latitude": -7.298868,
    "longitude": 112.764168
  },
  {
    "name": "SMA GIKI 3 SURABAYA",
    "latitude": -7.287344,
    "longitude": 112.775463
  },
  {
    "name": "SMA ISLAM TERPADU AL USWAH SURABAYA",
    "latitude": -7.306797,
    "longitude": 112.792345
  },
  {
    "name": "SMA KATOLIK SANTO HENDRIKUS SURABAYA",
    "latitude": -7.290157,
    "longitude": 112.777919
  },
  {
    "name": "SMA KRISTEN ANAK BANGSA",
    "latitude": -7.293602,
    "longitude": 112.76994
  },
  {
    "name": "SMA PANGLIMA SUDIRMAN SURABAYA",
    "latitude": -7.301392,
    "longitude": 112.768901
  },
  {
    "name": "SMA SEKOLAH ALAM INSAN MULIA",
    "latitude": -7.307322,
    "longitude": 112.788373
  },
  {
    "name": "SMA VITA",
    "latitude": -7.289545,
    "longitude": 112.789131
  },
  {
    "name": "SMA YAPITA SURABAYA",
    "latitude": -7.289681,
    "longitude": 112.797058
  }
]